[
    {
      "id": 1456,
      "name": "Alabama",
      "country_id": 233,
      "country_code": "US",
      "country_name": "United States",
      "state_code": "AL",
      "type": "state",
      "latitude": "32.31823140",
      "longitude": "-86.90229800"
  },
  {
      "id": 1400,
      "name": "Alaska",
      "country_id": 233,
      "country_code": "US",
      "country_name": "United States",
      "state_code": "AK",
      "type": "state",
      "latitude": "64.20084130",
      "longitude": "-149.49367330"
  },
  {
      "id": 1434,
      "name": "Arizona",
      "country_id": 233,
      "country_code": "US",
      "country_name": "United States",
      "state_code": "AZ",
      "type": "state",
      "latitude": "34.04892810",
      "longitude": "-111.09373110"
  },
  {
      "id": 1444,
      "name": "Arkansas",
      "country_id": 233,
      "country_code": "US",
      "country_name": "United States",
      "state_code": "AR",
      "type": "state",
      "latitude": "35.20105000",
      "longitude": "-91.83183340"
  },
  
  {
      "id": 1416,
      "name": "California",
      "country_id": 233,
      "country_code": "US",
      "country_name": "United States",
      "state_code": "CA",
      "type": "state",
      "latitude": "36.77826100",
      "longitude": "-119.41793240"
  },
  {
      "id": 1450,
      "name": "Colorado",
      "country_id": 233,
      "country_code": "US",
      "country_name": "United States",
      "state_code": "CO",
      "type": "state",
      "latitude": "39.55005070",
      "longitude": "-105.78206740"
  },
  {
      "id": 1435,
      "name": "Connecticut",
      "country_id": 233,
      "country_code": "US",
      "country_name": "United States",
      "state_code": "CT",
      "type": "state",
      "latitude": "41.60322070",
      "longitude": "-73.08774900"
  },
  {
      "id": 1399,
      "name": "Delaware",
      "country_id": 233,
      "country_code": "US",
      "country_name": "United States",
      "state_code": "DE",
      "type": "state",
      "latitude": "38.91083250",
      "longitude": "-75.52766990"
  },
 
  {
      "id": 1436,
      "name": "Florida",
      "country_id": 233,
      "country_code": "US",
      "country_name": "United States",
      "state_code": "FL",
      "type": "state",
      "latitude": "27.66482740",
      "longitude": "-81.51575350"
  },
  {
      "id": 1455,
      "name": "Georgia",
      "country_id": 233,
      "country_code": "US",
      "country_name": "United States",
      "state_code": "GA",
      "type": "state",
      "latitude": "32.16562210",
      "longitude": "-82.90007510"
  },

  {
      "id": 1460,
      "name": "Idaho",
      "country_id": 233,
      "country_code": "US",
      "country_name": "United States",
      "state_code": "ID",
      "type": "state",
      "latitude": "44.06820190",
      "longitude": "-114.74204080"
  },
  {
      "id": 1425,
      "name": "Illinois",
      "country_id": 233,
      "country_code": "US",
      "country_name": "United States",
      "state_code": "IL",
      "type": "state",
      "latitude": "40.63312490",
      "longitude": "-89.39852830"
  },
  {
      "id": 1440,
      "name": "Indiana",
      "country_id": 233,
      "country_code": "US",
      "country_name": "United States",
      "state_code": "IN",
      "type": "state",
      "latitude": "40.26719410",
      "longitude": "-86.13490190"
  },
  {
      "id": 1459,
      "name": "Iowa",
      "country_id": 233,
      "country_code": "US",
      "country_name": "United States",
      "state_code": "IA",
      "type": "state",
      "latitude": "41.87800250",
      "longitude": "-93.09770200"
  },

 
  {
      "id": 1406,
      "name": "Kansas",
      "country_id": 233,
      "country_code": "US",
      "country_name": "United States",
      "state_code": "KS",
      "type": "state",
      "latitude": "39.01190200",
      "longitude": "-98.48424650"
  },
  {
      "id": 1419,
      "name": "Kentucky",
      "country_id": 233,
      "country_code": "US",
      "country_name": "United States",
      "state_code": "KY",
      "type": "state",
      "latitude": "37.83933320",
      "longitude": "-84.27001790"
  },

  {
      "id": 1457,
      "name": "Louisiana",
      "country_id": 233,
      "country_code": "US",
      "country_name": "United States",
      "state_code": "LA",
      "type": "state",
      "latitude": "30.98429770",
      "longitude": "-91.96233270"
  },
  {
      "id": 1453,
      "name": "Maine",
      "country_id": 233,
      "country_code": "US",
      "country_name": "United States",
      "state_code": "ME",
      "type": "state",
      "latitude": "45.25378300",
      "longitude": "-69.44546890"
  },
  {
      "id": 1401,
      "name": "Maryland",
      "country_id": 233,
      "country_code": "US",
      "country_name": "United States",
      "state_code": "MD",
      "type": "state",
      "latitude": "39.04575490",
      "longitude": "-76.64127120"
  },
  {
      "id": 1433,
      "name": "Massachusetts",
      "country_id": 233,
      "country_code": "US",
      "country_name": "United States",
      "state_code": "MA",
      "type": "state",
      "latitude": "42.40721070",
      "longitude": "-71.38243740"
  },
  {
      "id": 1426,
      "name": "Michigan",
      "country_id": 233,
      "country_code": "US",
      "country_name": "United States",
      "state_code": "MI",
      "type": "state",
      "latitude": "44.31484430",
      "longitude": "-85.60236430"
  },

  {
      "id": 1420,
      "name": "Minnesota",
      "country_id": 233,
      "country_code": "US",
      "country_name": "United States",
      "state_code": "MN",
      "type": "state",
      "latitude": "46.72955300",
      "longitude": "-94.68589980"
  },
  {
      "id": 1430,
      "name": "Mississippi",
      "country_id": 233,
      "country_code": "US",
      "country_name": "United States",
      "state_code": "MS",
      "type": "state",
      "latitude": "32.35466790",
      "longitude": "-89.39852830"
  },
  {
      "id": 1451,
      "name": "Missouri",
      "country_id": 233,
      "country_code": "US",
      "country_name": "United States",
      "state_code": "MO",
      "type": "state",
      "latitude": "37.96425290",
      "longitude": "-91.83183340"
  },
  {
      "id": 1446,
      "name": "Montana",
      "country_id": 233,
      "country_code": "US",
      "country_name": "United States",
      "state_code": "MT",
      "type": "state",
      "latitude": "46.87968220",
      "longitude": "-110.36256580"
  },

  {
      "id": 1408,
      "name": "Nebraska",
      "country_id": 233,
      "country_code": "US",
      "country_name": "United States",
      "state_code": "NE",
      "type": "state",
      "latitude": "41.49253740",
      "longitude": "-99.90181310"
  },
  {
      "id": 1458,
      "name": "Nevada",
      "country_id": 233,
      "country_code": "US",
      "country_name": "United States",
      "state_code": "NV",
      "type": "state",
      "latitude": "38.80260970",
      "longitude": "-116.41938900"
  },
  {
      "id": 1404,
      "name": "New Hampshire",
      "country_id": 233,
      "country_code": "US",
      "country_name": "United States",
      "state_code": "NH",
      "type": "state",
      "latitude": "43.19385160",
      "longitude": "-71.57239530"
  },
  {
      "id": 1417,
      "name": "New Jersey",
      "country_id": 233,
      "country_code": "US",
      "country_name": "United States",
      "state_code": "NJ",
      "type": "state",
      "latitude": "40.05832380",
      "longitude": "-74.40566120"
  },
  {
      "id": 1423,
      "name": "New Mexico",
      "country_id": 233,
      "country_code": "US",
      "country_name": "United States",
      "state_code": "NM",
      "type": "state",
      "latitude": "34.51994020",
      "longitude": "-105.87009010"
  },
  {
      "id": 1452,
      "name": "New York",
      "country_id": 233,
      "country_code": "US",
      "country_name": "United States",
      "state_code": "NY",
      "type": "state",
      "latitude": "40.71277530",
      "longitude": "-74.00597280"
  },
  {
      "id": 1447,
      "name": "North Carolina",
      "country_id": 233,
      "country_code": "US",
      "country_name": "United States",
      "state_code": "NC",
      "type": "state",
      "latitude": "35.75957310",
      "longitude": "-79.01929970"
  },
  {
      "id": 1418,
      "name": "North Dakota",
      "country_id": 233,
      "country_code": "US",
      "country_name": "United States",
      "state_code": "ND",
      "type": "state",
      "latitude": "47.55149260",
      "longitude": "-101.00201190"
  },

  {
      "id": 4851,
      "name": "Ohio",
      "country_id": 233,
      "country_code": "US",
      "country_name": "United States",
      "state_code": "OH",
      "type": "state",
      "latitude": "40.41728710",
      "longitude": "-82.90712300"
  },
  {
      "id": 1421,
      "name": "Oklahoma",
      "country_id": 233,
      "country_code": "US",
      "country_name": "United States",
      "state_code": "OK",
      "type": "state",
      "latitude": "35.46756020",
      "longitude": "-97.51642760"
  },
  {
      "id": 1415,
      "name": "Oregon",
      "country_id": 233,
      "country_code": "US",
      "country_name": "United States",
      "state_code": "OR",
      "type": "state",
      "latitude": "43.80413340",
      "longitude": "-120.55420120"
  },
 
  {
      "id": 1422,
      "name": "Pennsylvania",
      "country_id": 233,
      "country_code": "US",
      "country_name": "United States",
      "state_code": "PA",
      "type": "state",
      "latitude": "41.20332160",
      "longitude": "-77.19452470"
  },

  {
      "id": 1461,
      "name": "Rhode Island",
      "country_id": 233,
      "country_code": "US",
      "country_name": "United States",
      "state_code": "RI",
      "type": "state",
      "latitude": "41.58009450",
      "longitude": "-71.47742910"
  },
  {
      "id": 1443,
      "name": "South Carolina",
      "country_id": 233,
      "country_code": "US",
      "country_name": "United States",
      "state_code": "SC",
      "type": "state",
      "latitude": "33.83608100",
      "longitude": "-81.16372450"
  },
  {
      "id": 1445,
      "name": "South Dakota",
      "country_id": 233,
      "country_code": "US",
      "country_name": "United States",
      "state_code": "SD",
      "type": "state",
      "latitude": "43.96951480",
      "longitude": "-99.90181310"
  },
  {
      "id": 1454,
      "name": "Tennessee",
      "country_id": 233,
      "country_code": "US",
      "country_name": "United States",
      "state_code": "TN",
      "type": "state",
      "latitude": "35.51749130",
      "longitude": "-86.58044730"
  },
  {
      "id": 1407,
      "name": "Texas",
      "country_id": 233,
      "country_code": "US",
      "country_name": "United States",
      "state_code": "TX",
      "type": "state",
      "latitude": "31.96859880",
      "longitude": "-99.90181310"
  },

  {
      "id": 1414,
      "name": "Utah",
      "country_id": 233,
      "country_code": "US",
      "country_name": "United States",
      "state_code": "UT",
      "type": "state",
      "latitude": "39.32098010",
      "longitude": "-111.09373110"
  },
  {
      "id": 1409,
      "name": "Vermont",
      "country_id": 233,
      "country_code": "US",
      "country_name": "United States",
      "state_code": "VT",
      "type": "state",
      "latitude": "44.55880280",
      "longitude": "-72.57784150"
  },
  {
      "id": 1427,
      "name": "Virginia",
      "country_id": 233,
      "country_code": "US",
      "country_name": "United States",
      "state_code": "VA",
      "type": "state",
      "latitude": "37.43157340",
      "longitude": "-78.65689420"
  },
 
  {
      "id": 1462,
      "name": "Washington",
      "country_id": 233,
      "country_code": "US",
      "country_name": "United States",
      "state_code": "WA",
      "type": "state",
      "latitude": "47.75107410",
      "longitude": "-120.74013850"
  },
  {
      "id": 1429,
      "name": "West Virginia",
      "country_id": 233,
      "country_code": "US",
      "country_name": "United States",
      "state_code": "WV",
      "type": "state",
      "latitude": "38.59762620",
      "longitude": "-80.45490260"
  },
  {
      "id": 1441,
      "name": "Wisconsin",
      "country_id": 233,
      "country_code": "US",
      "country_name": "United States",
      "state_code": "WI",
      "type": "state",
      "latitude": "43.78443970",
      "longitude": "-88.78786780"
  },
  {
      "id": 1442,
      "name": "Wyoming",
      "country_id": 233,
      "country_code": "US",
      "country_name": "United States",
      "state_code": "WY",
      "type": "state",
      "latitude": "43.07596780",
      "longitude": "-107.29028390"
  },
  {
    "id": 1443,
    "name": "District of Columbia",
    "country_id": 233,
    "country_code": "US",
    "country_name": "United States",
    "state_code": "DC",
    "type": "state",
    "latitude": "43.07596780",
    "longitude": "-107.29028390"
}
  ]